City_ID,City,Country,Max Temp,Current Description,Lat,Lng,Hotel Name
0,Esmeraldas,BR,67.06,light rain,-19.7625,-44.3139,Bom Será - Marcinho e Fernanda
2,Kapaa,US,84.18,light rain,22.0752,-159.319,Sheraton Kauai Coconut Beach Resort
3,Vaini,TO,77.16,broken clouds,-21.2,-175.2,Keleti Beach Resort
4,Atuona,PF,78.39,scattered clouds,-9.8,-139.0333,Villa Enata
5,Saint-Philippe,RE,71.15,clear sky,-21.3585,55.7679,"Chambres d'hôte ""La Trinité"""
11,Hermanus,ZA,63.9,overcast clouds,-34.4187,19.2345,Misty Waves Boutique Hotel
12,Mareeba,AU,84.33,few clouds,-17.0,145.4333,Trinity Plains Tourist Park
13,Vao,NC,70.48,clear sky,-22.6667,167.4833,Hotel Kou-Bugny
14,Teluk Intan,MY,77.22,overcast clouds,4.0259,101.0213,Angsoka Hotel Teluk Intan
16,Mahebourg,MU,71.26,light rain,-20.4081,57.7,Shandrani Beachcomber Resort & Spa
18,Jamestown,US,65.79,clear sky,42.097,-79.2353,Hampton Inn & Suites Jamestown
20,Honiara,SB,84.65,overcast clouds,-9.4333,159.95,Heritage Park Hotel
21,Bengkulu,ID,76.06,overcast clouds,-3.8004,102.2655,Grage Hotel Bengkulu
22,Dondo,MZ,71.11,light rain,-19.6094,34.7431,Arco Iris
23,Yurimaguas,PE,82.54,broken clouds,-5.9,-76.0833,Rio Huallaga Hotel & Business Center
28,Hilo,US,81.39,moderate rain,19.7297,-155.09,Hilo Hawaiian Hotel
29,Busselton,AU,61.05,overcast clouds,-33.65,115.3333,Observatory Guest House
30,Carnarvon,AU,68.07,clear sky,-24.8667,113.6333,Hospitality Carnarvon
36,Coahuayana,MX,87.28,overcast clouds,18.7333,-103.6833,El rranchito michuacan de ocampos
38,Tumsar,IN,68.41,few clouds,21.3833,79.7333,Sai Guest House
39,Izumo,JP,78.33,few clouds,35.3667,132.7667,Toyoko-Inn Izumoshi ekimae
44,Puerto Ayora,EC,69.55,broken clouds,-0.7393,-90.3518,Finch Bay Galapagos Hotel
45,Kununurra,AU,85.98,scattered clouds,-15.7667,128.7333,Hotel Kununurra
47,Inirida,CO,75.81,moderate rain,3.8653,-67.9239,Fuente del Guania Hotel de Lujo
48,Axim,GH,75.85,light rain,4.8699,-2.2405,Axim Beach Resort And Spa
52,Namatanai,PG,84.13,light rain,-3.6667,152.4333,Seagulls Inn Namatani
54,Sola,VU,79.97,scattered clouds,-13.8833,167.55,Leumerus Bungalows
56,Alofi,NU,77.34,overcast clouds,-19.0595,-169.9187,Taloa Heights
57,Rikitea,PF,74.82,overcast clouds,-23.1203,-134.9692,People ThankYou
59,Sigli,ID,78.58,broken clouds,5.3848,95.9609,Losmen Dua Mali
60,Chuy,UY,60.6,overcast clouds,-33.6971,-53.4616,Nuevo Hotel Plaza
61,Lagoa,PT,70.39,overcast clouds,39.05,-27.9833,Casa Das Faias
62,Hithadhoo,MV,82.72,overcast clouds,-0.6,73.0833,Scoop Guest House
70,Comodoro Rivadavia,AR,66.06,clear sky,-45.8667,-67.5,Austral Hotel
73,Camacha,PT,68.76,few clouds,33.0833,-16.3333,Hotel Porto Santo & Spa
74,Hualmay,PE,63.72,scattered clouds,-11.0964,-77.6139,Hotel Villa Kitzia Huacho
75,Wanning,CN,80.78,overcast clouds,18.8003,110.3967,Paradise Hotel
76,Goderich,CA,67.21,overcast clouds,43.7501,-81.7165,Harmony Inn
77,Butaritari,KI,81.75,scattered clouds,3.0707,172.7902,Isles Sunset Lodge
78,Nishihara,JP,83.48,heavy intensity rain,26.1842,127.7558,Minshuku Agaihama
79,Swellendam,ZA,61.9,overcast clouds,-34.0226,20.4417,De Kloof Luxury Estate boutique Hotel & SPA
80,Mogadishu,SO,78.08,few clouds,2.0371,45.3438,Hotel Juba
81,Awjilah,LY,75.97,clear sky,29.1081,21.2869,
83,Albany,US,62.1,overcast clouds,42.6001,-73.9662,
84,Ponta Do Sol,PT,72.23,few clouds,32.6667,-17.1,Hotel do Campo
86,Avera,US,73.71,few clouds,33.194,-82.5271,
87,Katsuura,JP,80.19,scattered clouds,35.1333,140.3,Katsuura Hotel Mikazuki
88,Tacoronte,ES,66.76,broken clouds,28.4769,-16.4102,Casa Laurel
90,Villacarrillo,ES,64.99,overcast clouds,38.1156,-3.0848,Hotel Sierra de Las Villas
92,Bambous Virieux,MU,71.22,light rain,-20.3428,57.7575,Casa Tia Villa
93,Sao Joao Da Barra,BR,68.45,light rain,-21.6403,-41.0511,Pousada Porto De Canoas
96,Christchurch,NZ,62.8,light rain,-43.5333,172.6333,The George
99,Yulara,AU,62.44,clear sky,-25.2406,130.9889,Desert Gardens Hotel - Ayers Rock Resort
102,Cidreira,BR,64.99,overcast clouds,-30.1811,-50.2056,Hotel Castelo
103,Stephenville,US,87.89,scattered clouds,32.2207,-98.2023,La Quinta Inn & Suites by Wyndham Stephenville
104,Kamakwie,SL,74.41,overcast clouds,9.5,-12.2333,
106,Ankara,TR,62.2,clear sky,39.9199,32.8543,Ramada by Wyndham Ankara
107,San Patricio,US,86.05,scattered clouds,28.017,-97.5169,"Motel 6 Sinton, TX"
108,Makakilo City,US,84.52,scattered clouds,21.3469,-158.0858,Marriott's Ko Olina Beach Club
109,South Venice,US,83.98,clear sky,27.0531,-82.4243,"Island Sun Inn & Suites - Venice, Florida Historic Downtown & Beach Getaway"
110,Georgetown,MY,79.9,light rain,5.4112,100.3354,Cititel Penang
112,Ribeira Grande,PT,69.48,overcast clouds,38.5167,-28.7,Quinta da Meia Eira
116,Jalu,LY,75.36,clear sky,29.0331,21.5482,صاحبة الفخامة
118,Buchanan,LR,77.14,light rain,5.8808,-10.0467,Kamaneahn Hotel Inc
120,Hamilton,US,77.09,clear sky,39.1834,-84.5333,Six Acres Bed & Breakfast
123,Avarua,CK,78.85,overcast clouds,-21.2078,-159.775,Paradise Inn
125,Vila Velha,BR,67.95,moderate rain,-20.3297,-40.2925,Quality Suites Vila Velha
126,Kasempa,ZM,72.03,clear sky,-13.4584,25.8338,Lolelunga Forest Reserve
127,Bang Sai,TH,82.99,overcast clouds,14.2124,100.4966,แพ สนามชัย บางไทร อยุธยา ตกปลา fishing
128,Pizarro,CO,76.78,light rain,4.9533,-77.366,Hotel Limonar
130,Isangel,VU,78.49,clear sky,-19.55,169.2667,Tanna Lodge
133,Gewane,ET,77.49,overcast clouds,10.1664,40.6453,Ayelu pension
134,Airai,TL,74.25,overcast clouds,-8.9266,125.4092,Juvinal Martin
137,Saint Anthony,US,63.55,overcast clouds,45.0205,-93.218,"Holiday Inn Express Roseville-St. Paul, an IHG Hotel"
138,Cape Town,ZA,64.11,clear sky,-33.9258,18.4232,Southern Sun Waterfront Cape Town
140,Tondano,ID,78.89,overcast clouds,1.3038,124.9112,Villa Bella
143,Ixtapa,MX,88.83,broken clouds,20.7,-105.2,Hotel Plaza Providencia
144,Sault Sainte Marie,CA,66.76,mist,46.5168,-84.3333,Comfort Inn
146,Cairns,AU,88.95,moderate rain,-16.9167,145.7667,Mantra Trilogy Cairns
148,Bethel,US,62.96,overcast clouds,41.3712,-73.414,Courtyard by Marriott Danbury
150,Karratha,AU,78.89,clear sky,-20.7377,116.8463,ibis Styles Karratha
152,Dingle,PH,78.33,overcast clouds,10.9995,122.6711,SEGAYA PROPERTY
153,Namibe,AO,68.79,broken clouds,-15.1961,12.1522,Hotel Chik Chik Namibe
155,Touros,BR,79.7,scattered clouds,-5.1989,-35.4608,INN NEW HORIZON
157,Chabahar,IR,81.79,clear sky,25.2919,60.643,هتل گدروشیا
159,Kankon,IN,77.83,scattered clouds,15.0167,74.0167,Palolem Beach Resort
160,Rivera,UY,63.03,light rain,-30.9053,-55.5508,Hotel Casino & Resort Rivera
162,Sur,OM,81.41,clear sky,22.5667,59.5289,Sur Plaza Hotel
166,Guerrero Negro,MX,75.07,clear sky,27.9769,-114.0611,"Casa Laguna, Bed & Breakfast"
167,Dinajpur,BD,74.55,light rain,25.6272,88.6386,Hotel Sahara
170,Emerald,AU,81.34,few clouds,-23.5333,148.1667,The Irish Village
171,Cervo,ES,60.96,few clouds,43.6702,-7.4101,Hotel Spa Galatea
177,Jaru,BR,82.83,broken clouds,-10.4389,-62.4664,Hotel Paraná
179,Cabinda,AO,75.87,broken clouds,-5.55,12.2,Hotel Maiombe
182,Kavaratti,IN,82.11,overcast clouds,10.5669,72.642,Hotels in Lakshadweep Islands
185,Quang Ngai,VN,78.06,overcast clouds,15.1167,108.8,Central Hotel
186,Jutai,BR,77.52,broken clouds,-5.1833,-68.9,
187,Bathsheba,BB,83.01,scattered clouds,13.2167,-59.5167,Atlantis Hotel
188,Beloha,MG,67.46,light rain,-25.1667,45.05,
189,Naze,JP,77.88,broken clouds,28.3667,129.4833,オーベルジュ・アガルイ
190,Faanui,PF,79.79,scattered clouds,-16.4833,-151.75,Bora-Bora Pearl Beach Resort & Spa
192,Arraial Do Cabo,BR,67.73,light rain,-22.9661,-42.0278,Pousada Porto Praia
193,Shingu,JP,79.79,clear sky,33.7333,135.9833,Shingu UI Hotel
195,Ishinomaki,JP,77.0,clear sky,38.4167,141.3,Hotel Route Inn Ishinomaki Henan Inter
196,Celestun,MX,82.92,scattered clouds,20.8667,-90.4,Posada Lilia
198,Culebra,PR,80.69,few clouds,18.303,-65.301,Palmetto Guesthouse
201,Kahului,US,82.42,scattered clouds,20.8947,-156.47,Maui Seaside Hotel
206,Tura,IN,72.55,clear sky,25.5198,90.2201,Hotel RIKMAN Continental
207,Paciran,ID,80.42,overcast clouds,-6.8767,112.3761,Tanjung Kodok Beach Resort
208,Sarangani,PH,83.14,overcast clouds,5.4033,125.4636,Ballistic Islet
209,Sibolga,ID,76.12,overcast clouds,1.7427,98.7792,Hotel Syariah CN Darussalam
211,Kotdwara,IN,69.71,clear sky,29.75,78.5333,hotel gaurav plaza
212,Vanimo,PG,82.04,overcast clouds,-2.6741,141.3028,Vahmoneh Lodge Vanimo
215,Tarauaca,BR,75.25,broken clouds,-8.1614,-70.7656,Flat Temporada
218,Saint George,US,74.62,clear sky,37.1041,-113.5841,Best Western Plus Abbey Inn
219,Fonte Boa,BR,78.57,scattered clouds,-2.4959,-66.2662,
220,Northfield,US,65.01,broken clouds,44.4583,-93.1616,"Country Inn & Suites by Radisson, Northfield, MN"
222,Trincomalee,LK,80.83,overcast clouds,8.5711,81.2335,Welcombe Hotel
223,Alyangula,AU,83.71,overcast clouds,-13.8483,136.4192,Groote Eylandt Lodge
224,Bauchi,NG,73.4,broken clouds,10.5,10.0,
225,Lompoc,US,80.78,clear sky,34.6391,-120.4579,"Holiday Inn Express Lompoc, an IHG Hotel"
228,Port Blair,IN,78.84,mist,11.6667,92.75,"Welcomhotel By ITC Hotels, Bay Island, Port Blair"
229,San Quintin,MX,70.61,clear sky,30.4833,-115.95,Don Eddie's Sport Fishing Center
230,Victoria,HK,83.32,overcast clouds,22.2855,114.1577,Mini Hotel Central
231,Kaliua,TZ,74.89,overcast clouds,-5.0606,31.7936,Millennium Complex
235,Ouegoa,NC,78.82,few clouds,-20.35,164.4333,
237,Tateyama,JP,81.14,scattered clouds,34.9833,139.8667,Tateyama Seaside Hotel
238,Freeport,US,66.25,broken clouds,40.6576,-73.5832,The Freeport Inn and Marina
239,Sonamura,IN,80.6,few clouds,23.4719,91.2664,Sorojini Guest House
241,Poum,NC,75.42,few clouds,-20.2333,164.0167,Gîte kajeon
244,Hasaki,JP,77.29,scattered clouds,35.7333,140.8333,Hotel Sunrise Choshi
247,Port Augusta,AU,60.71,clear sky,-32.5,137.7667,Majestic Oasis Apartments
250,Narasannapeta,IN,76.95,few clouds,18.4167,84.05,G.lingaraju home
251,Lafia,NG,73.85,overcast clouds,8.4833,8.5167,Low Cost Housing Estate
252,West Bay,KY,84.27,few clouds,19.3667,-81.4167,Calypso Cove
254,Oistins,BB,82.49,scattered clouds,13.0667,-59.5333,Butterfly Beach Hotel
257,Kavieng,PG,84.13,broken clouds,-2.5744,150.7967,Nusa Island Retreat
259,Suluq,LY,76.55,clear sky,31.6682,20.2521,منزل عبدالواحد خليفة الفاخري
262,Richards Bay,ZA,62.2,broken clouds,-28.783,32.0377,BON Hotel Waterfront Richards Bay
263,Hambantota,LK,79.45,overcast clouds,6.1241,81.1185,Bungalow 63
264,Mahibadhoo,MV,82.6,broken clouds,3.7833,72.9667,Omadhoo Inn
265,Pundaguitan,PH,84.54,overcast clouds,6.3711,126.1689,Leonardo Family Beach House 1
267,Coro,VE,79.52,overcast clouds,11.4045,-69.6734,Federal
270,Des Moines,US,67.08,overcast clouds,41.6005,-93.6091,Des Moines Marriott Downtown
271,Baghdad,IQ,67.91,clear sky,33.3406,44.4009,Baghdad Hotel
272,Bubaque,GW,82.42,broken clouds,11.2833,-15.8333,"Casa Dora, Bubaque"
273,Charters Towers,AU,81.34,clear sky,-20.1,146.2667,Cattleman's Rest Motor Inn
274,Bud,US,77.34,scattered clouds,39.447,-86.1758,Ted McQuinn Trust
276,Bamako,ML,79.21,scattered clouds,12.65,-8.0,Hôtel l’Amitié Bamako
277,Alta Floresta,BR,79.74,light rain,-9.8756,-56.0861,Floresta Amazonica Hotel
278,Saint-Joseph,RE,70.16,clear sky,-21.3667,55.6167,"""Plantation Bed and Breakfast"
279,Kaeo,NZ,69.33,light rain,-35.1,173.7833,Bushido Lodge
283,Beroroha,MG,76.14,overcast clouds,-21.6667,45.1667,
285,Marzuq,YE,76.6,scattered clouds,14.4,46.4667,
286,Yen Bai,VN,72.79,overcast clouds,21.7,104.8667,AK MOTEL
287,Fortuna,US,62.47,broken clouds,40.5982,-124.1573,Super 8 by Wyndham Fortuna
291,Martapura,ID,80.69,few clouds,-3.4167,114.85,Montana Hotel Syariah
292,Esperance,AU,63.19,overcast clouds,-33.8667,121.9,Hospitality Esperance
293,Bria,CF,69.94,overcast clouds,6.5423,21.9863,
294,Tahta,EG,83.08,broken clouds,26.7693,31.5021,مصطفي عساف
295,Grand Gaube,MU,73.8,light rain,-20.0064,57.6608,Veranda Paul et Virginie Hotel & Spa
296,Moose Factory,CA,66.2,scattered clouds,51.2585,-80.6094,Moosonee Lilypad
297,Buala,SB,84.88,broken clouds,-8.145,159.5921,Maringe Lagoon Lodge
298,Nisia Floresta,BR,79.61,scattered clouds,-6.0911,-35.2086,Rancho Crepusculo
299,Cabra,ES,63.9,overcast clouds,37.4725,-4.4421,MS Fuente Las Piedras
302,Ducheng,CN,69.78,overcast clouds,23.2373,111.5317,Xinyongguang Hotel
305,Pacific Grove,US,79.99,clear sky,36.6177,-121.9166,Lovers Point Inn
308,Mastic Beach,US,65.1,overcast clouds,40.7668,-72.8521,Brushwood House by Smith Point Beach
310,Kirakira,SB,81.59,overcast clouds,-10.4544,161.9205,SanBiz Lodge
311,Sao Filipe,CV,80.28,clear sky,14.8961,-24.4956,Hotel Xaguate
314,Los Llanos De Aridane,ES,67.75,clear sky,28.6585,-17.9182,Valle Aridane
315,Asfi,MA,68.02,broken clouds,32.2994,-9.2372,Hôtel Abda
316,Mucuri,BR,73.49,light rain,-18.0864,-39.5508,La Bodeguita Pousada
317,Puruliya,IN,73.11,clear sky,23.3333,86.3667,Hotel Akash Ganga
318,Nkan,GA,76.77,overcast clouds,0.3833,9.7833,Hôtel Santa Barbara
320,Takoradi,GH,76.08,overcast clouds,4.8845,-1.7554,Raybow International Hotel
321,Merauke,ID,81.63,overcast clouds,-8.4667,140.3333,
322,Curup,ID,70.05,light rain,-3.4667,102.5333,Ayi The Costel
323,San Cristobal,VE,73.58,overcast clouds,7.7669,-72.225,Posada Villaven C.A.
324,Surt,LY,75.43,broken clouds,31.2089,16.5887,الهادي ابوشعاله سرت
325,Kodinar,IN,78.98,broken clouds,20.7903,70.7031,residency of N.B vadhel
326,Subang,ID,75.67,broken clouds,-7.1277,108.5283,TPU BAGUS JAYA NGOHOL
328,Beecher,US,71.76,clear sky,43.09,-83.6944,"Holt's Mobile Home Court, Sales and RV Park"
329,Batemans Bay,AU,60.19,overcast clouds,-35.7167,150.1833,Batemans Bay Marina Resort
330,Acarau,BR,79.52,clear sky,-2.8856,-40.12,castelo pizzaria
331,Ca Mau,VN,79.72,overcast clouds,9.1769,105.15,Khách Sạn Mường Thanh Luxury Cà Mau
332,Nantucket,US,64.02,heavy intensity rain,41.2835,-70.0995,Jared Coffin House
333,Pisco,PE,62.65,clear sky,-13.7,-76.2167,Hotel San Isidro Oficial
336,Mehran,IR,69.28,clear sky,33.1222,46.1646,بوتیک زنانه بهار
340,Port Macquarie,AU,64.89,overcast clouds,-31.4333,152.9167,Rydges Port Macquarie
341,Calabasas,US,84.06,clear sky,34.1578,-118.6384,The Anza A Calabasas Hotel
343,Tonaya,MX,77.43,broken clouds,19.7833,-103.9667,Mayra gallardo
345,Lishui,CN,71.4,overcast clouds,28.4604,119.9103,Bayi Hotel
346,Makokou,GA,68.4,overcast clouds,0.5738,12.8642,Motel des voyageurs
347,Roswell,US,72.39,clear sky,34.0232,-84.3616,La Quinta Inn & Suites by Wyndham Atlanta Roswell
348,Mbandaka,CD,70.54,overcast clouds,0.0487,18.2603,Guest House Epervier
349,La Plata,AR,63.99,overcast clouds,-34.9215,-57.9545,Hotel Corregidor
350,Salalah,OM,80.69,broken clouds,17.0151,54.0924,"HAMDAN PLAZA HOTEL SALALAH, an HTG Hotel"
351,Sete,FR,60.84,few clouds,43.4018,3.6966,Hotel De Paris Sète
352,Gao,ML,86.85,overcast clouds,16.6362,1.637,
355,Laguna,US,82.49,clear sky,38.421,-121.4238,"Holiday Inn Express & Suites Elk Grove Central - Hwy 99, an IHG Hotel"
357,Nazira,IN,78.98,clear sky,26.9167,94.7333,Hotel Villa & Restaurant Fruition
358,Taltal,CL,64.96,clear sky,-25.4,-70.4833,Residencial Karime
362,San Rafael,AR,65.12,scattered clouds,-34.6177,-68.3301,Hotel San Rafael
363,Rohtak,IN,77.09,clear sky,28.9,76.5667,SPOT ON 66080 Hotel Milan
364,Kloulklubed,PW,84.7,overcast clouds,7.0419,134.2556,Storyboard Beach Resort
365,Nanga Eboko,CM,66.94,overcast clouds,4.6833,12.3667,Motel Papi Palace
367,Los Banos,PH,85.8,overcast clouds,14.1667,121.1833,Sol Y Viento Mountain Hot Springs and Resort
369,Asuncion Nochixtlan,MX,63.63,scattered clouds,17.4667,-97.2333,Hotel Kristal
370,Kasungu,MW,72.05,few clouds,-13.0333,33.4833,Mame Motel
371,Benghazi,LY,78.08,few clouds,32.1167,20.0667,Tibesti Hotel
372,Puerto Del Rosario,ES,73.15,scattered clouds,28.5004,-13.8627,Hotel JM Puerto del Rosario
374,Oriximina,BR,84.09,broken clouds,-1.7656,-55.8661,Pousada Tia Amélia
377,Virden,US,78.85,scattered clouds,39.5009,-89.7679,Virden Nail Spa
378,Mesimerion,GR,61.29,light rain,40.412,23.0059,La casa de la madre
380,Weligama,LK,78.26,overcast clouds,5.9667,80.4167,Weligama Bay Resort
381,Souillac,MU,73.78,shower rain,-20.5167,57.5167,Shanti Maurice Resort & Spa
383,Barrancabermeja,CO,76.77,broken clouds,7.0653,-73.8547,Hotel Millenium Barrancabermeja
384,Port-Gentil,GA,77.68,overcast clouds,-0.7193,8.7815,Fengshui Residence
385,Tautira,PF,84.22,broken clouds,-17.7333,-149.15,Pension Oaoa
388,Columbia,US,74.84,clear sky,34.0007,-81.0348,Hampton Inn Columbia-Downtown Historic District
390,Kaiyuan,CN,61.14,light rain,23.6977,103.3037,Dongqi Hotel
391,Fukue,JP,77.36,broken clouds,32.6881,128.8419,Goto Guesthouse Utojuku & SA Car Rental
393,Columbus,US,76.35,few clouds,39.9612,-82.9988,DoubleTree Suites by Hilton Hotel Columbus Downtown
395,Hearst,CA,64.65,overcast clouds,49.6835,-83.6665,Companion
396,Tonj,SS,72.41,overcast clouds,7.2737,28.6822,Lakan Hotel
398,Badulla,LK,70.54,overcast clouds,6.9895,81.0557,Budget comfort holiday
401,Peringat,MY,76.95,broken clouds,6.0333,102.2833,Daseda Guest House
402,San Francisco De Macoris,DO,79.48,scattered clouds,19.2952,-70.2554,Hotel Las Caobas
406,Gemena,CD,69.89,broken clouds,3.25,19.7667,Hôtel Goshen
408,Nanakuli,US,85.95,scattered clouds,21.3906,-158.1547,Camp Pālehua
409,Mananjary,MG,67.05,clear sky,-21.2167,48.3333,Vahiny Lodge
410,Sidi Ali,DZ,67.05,scattered clouds,36.0998,0.4206,
411,Mae Sot,TH,76.95,overcast clouds,16.7167,98.5667,Suan Darb Porn Resort (บ้านสวนดาบพรรีสอร์ท)
412,Holland,US,72.88,clear sky,42.7875,-86.1089,Hampton Inn Holland
413,Rawson,AR,61.97,few clouds,-43.3002,-65.1023,Hosteria Sampedro
414,Diu,IN,79.12,broken clouds,20.7141,70.9822,Hotel Relax Inn
416,Minot,US,64.62,clear sky,48.2325,-101.2963,Noble Inn
419,Alvorada,BR,88.66,broken clouds,-12.48,-49.1247,Cristal Plaza Hotel
421,Carnot,CF,67.57,overcast clouds,4.9409,15.8665,
422,Lamballe,FR,60.82,broken clouds,48.4676,-2.5144,Hôtel Kyriad Lamballe
423,Luba,GQ,77.81,overcast clouds,3.4568,8.5547,
425,Salta,AR,72.19,light rain,-24.7859,-65.4117,Hotel Alejandro I
426,Sioux Lookout,CA,60.87,overcast clouds,50.1001,-91.917,Knobby's Fly-In Camps
427,Lorengau,PG,85.19,broken clouds,-2.0226,147.2712,Lorengau Harbourside Hotel
428,Mutis,CO,77.05,overcast clouds,6.2262,-77.4044,Paraiso Escondido
430,Porto Walter,BR,82.76,broken clouds,-8.2686,-72.7439,Secretaria de saúde
432,Tagusao,PH,79.47,moderate rain,9.1924,117.8141,Toledo
434,Mount Isa,AU,67.77,overcast clouds,-20.7333,139.5,ibis Styles Mt Isa Verona
435,Sri Aman,MY,77.05,scattered clouds,1.2376,111.4621,Seri Simanggang Hotel
437,Cayenne,GF,83.08,clear sky,4.9333,-52.3333,Hôtel Le Dronmi
439,Yanam,IN,76.15,scattered clouds,16.7333,82.2167,The Regency Hotel
440,Rio Claro,BR,68.79,overcast clouds,-22.4114,-47.5614,Hotel Vivendas Rio Claro by Atlantica
441,Bosaso,SO,83.73,broken clouds,11.2842,49.1816,Red Sea Hotel
442,Buin,CL,65.73,clear sky,-33.7333,-70.75,Paihuen
443,Bandarbeyla,SO,78.91,broken clouds,9.4942,50.8122,JABIR HOTEL
444,Wajid,SO,73.27,scattered clouds,3.8093,43.2471,xamdihotelresturant114
446,North Myrtle Beach,US,74.21,scattered clouds,33.816,-78.68,Avista Resort
447,Marsh Harbour,BS,82.65,few clouds,26.5412,-77.0636,Abaco Beach Resort
448,Santa Rosa,PH,86.11,overcast clouds,14.3122,121.1114,Erlyn’s Sta Rosa City Home
449,Ramshir,IR,64.15,clear sky,30.8946,49.4092,معصومه مهدیان
452,Durango,MX,74.03,clear sky,24.8333,-104.8333,
453,Kollam,IN,78.67,overcast clouds,8.8833,76.6,Nani Hotels and Resorts
454,Bodden Town,KY,84.2,few clouds,19.2833,-81.25,Will T Place
456,Rognac,FR,60.58,clear sky,43.4876,5.2339,CLOS LA VERDIERE
458,Rio Grande,BR,63.95,overcast clouds,-32.035,-52.0986,Hotel Atlântico Rio Grande
461,Techiman,GH,71.64,overcast clouds,7.5862,-1.9414,KONTINENTAL LODGE
464,Dwarka,IN,81.66,clear sky,22.2394,68.9678,Hotel Narayan Avezika Comfort
465,Manicore,BR,83.37,broken clouds,-5.8092,-61.3003,Hotel Durval
466,Gorontalo,ID,84.42,light rain,0.5412,123.0595,Maqna Hotel by Prasanthi
468,Luganville,VU,81.05,overcast clouds,-15.5333,167.1667,The Espiritu Hotel
469,Kitui,KE,61.83,broken clouds,-1.367,38.0106,Heritage Bliss Hotel
470,Luanda,AO,73.24,broken clouds,-8.8368,13.2343,Hotel Fórum
471,Ugoofaaru,MV,82.9,broken clouds,5.6667,73.0,Ungoofaaru Inn
473,Sabang,ID,82.24,broken clouds,5.8933,95.3214,Hotel Citra
474,Cananea,MX,70.93,clear sky,30.95,-110.3,Casas Montoya
475,Poso,ID,82.09,overcast clouds,-1.3959,120.7524,Hotel 77 Poso
477,Muros,ES,64.24,clear sky,42.7762,-9.0603,Apartment Av. Castelao
478,Cubarral,CO,72.79,moderate rain,3.7935,-73.8406,Hotel Shaloom
479,Ampanihy,MG,66.56,light rain,-24.7,44.75,Angora Hotel
481,Maldonado,UY,60.19,overcast clouds,-34.6667,-54.9167,La Cimarrona
482,Port Hueneme,US,85.12,clear sky,34.1478,-119.1951,Hampton Inn Channel Islands Harbor
485,Owensboro,US,79.25,clear sky,37.7742,-87.1133,Courtyard by Marriott Owensboro
486,Sakakah,SA,76.57,clear sky,29.9697,40.2064,Fakhamat Al Orjoana Apartment
489,Tabou,CI,77.45,overcast clouds,4.423,-7.3528,hotêl doufoulougou
490,Flinders,AU,61.05,overcast clouds,-34.5833,150.8552,Shellharbour Resort & Conference Centre
492,San Vicente,AR,62.67,light rain,-26.6167,-54.1333,Complejo Turístico Farelluk
493,Sorong,ID,80.24,overcast clouds,-0.8833,131.25,waigo splash hotel
496,Sao Paulo De Olivenca,BR,75.4,light rain,-3.3783,-68.8725,
498,Creston,US,63.64,overcast clouds,41.0586,-94.3614,Supertel Inn & Conference Center
500,Horta,PT,68.65,overcast clouds,38.5333,-28.6333,Hotel do Canal | Horta - Faial
503,Manono,CD,75.96,overcast clouds,-7.3,27.4167,Hotel hewa bora
506,Yatou,CN,61.16,broken clouds,37.15,122.3833,GreenTree Hotel Rongcheng Bus Station
508,Riyadh,SA,75.34,clear sky,24.6877,46.7219,"InterContinental Riyadh, an IHG Hotel"
509,Lata,PT,66.06,few clouds,40.1629,-8.3327,Casa Maquia
510,Virginia Beach,US,72.27,overcast clouds,36.8529,-75.978,Hilton Virginia Beach Oceanfront
511,Noumea,NC,84.18,clear sky,-22.2763,166.4572,Hôtel Le Lagon
512,Agadir,MA,63.05,overcast clouds,30.4202,-9.5982,Iberostar Founty Beach
513,Kindu,CD,69.48,overcast clouds,-2.95,25.95,Résidence Okanda
516,Uige,AO,68.94,overcast clouds,-7.6087,15.0613,Hotel Catraio
517,Yaring,TH,75.24,scattered clouds,6.8662,101.3689,สถานที่จัดงานแต่ง SOFEE & DORN
519,Rio Verde De Mato Grosso,BR,69.66,light rain,-18.9181,-54.8442,Hotel Valência
520,Mount Pleasant,US,73.99,overcast clouds,32.7941,-79.8626,Best Western Patriots Point
523,Araouane,ML,87.44,overcast clouds,18.9048,-3.5265,
525,Carauari,BR,79.83,broken clouds,-4.8828,-66.8958,Hotel Fellip
526,Yaan,NG,71.96,overcast clouds,7.3833,8.5667,
527,Turan,VN,80.65,few clouds,16.0678,108.2208,Sun River Hotel
528,Arani,IN,77.32,overcast clouds,12.6667,79.2833,KPK LODGE
531,Clinton,US,73.94,broken clouds,42.587,-82.9199,Hampton Inn Detroit/Roseville
534,Moyale,KE,70.9,scattered clouds,3.5167,39.0584,La Tahzan Guest House
536,Jinxi,CN,61.3,overcast clouds,30.4323,116.2922,Jinling Hotel
537,Santa Cruz,BO,81.86,scattered clouds,-17.8,-63.1667,Aviador Hotel Boutique
538,Caxito,AO,73.44,broken clouds,-8.5785,13.6643,
540,Vermilion,US,80.19,clear sky,40.1667,-87.7506,Sparkling Springs Cabin
542,Ha Tinh,VN,76.93,heavy intensity rain,18.3333,105.9,Phú Quý
543,Shimoda,JP,79.16,few clouds,34.6667,138.95,Shimoda Tokyu Hotel
544,Garowe,SO,77.23,light rain,8.4054,48.4845,Curubo Hotel
545,Perth,AU,68.04,scattered clouds,-31.9333,115.8333,Beatty Lodge
549,Kangaba,ML,77.68,broken clouds,11.9333,-8.4167,Hôtel Mandé
551,Manavgat,TR,63.01,clear sky,36.7867,31.4431,River Boutique Hotel
552,Vila Franca Do Campo,PT,72.01,overcast clouds,37.7167,-25.4333,Pestana Bahia Praia
556,Ahuimanu,US,85.71,broken clouds,21.4447,-157.8378,Paradise Bay Resort
559,Praia Da Vitoria,PT,72.75,overcast clouds,38.7333,-27.0667,Hotel Branco I
560,Palauig,PH,82.38,moderate rain,15.435,119.9045,Alperi Botique Resort
561,Kulhudhuffushi,MV,82.85,overcast clouds,6.6221,73.07,Hondaafushi Island Resort
562,Tete,MZ,74.1,few clouds,-16.1564,33.5867,Zambeze Paraíso Misterioso
563,Boende,CD,72.19,light rain,-0.2167,20.8667,
565,Sambava,MG,66.58,few clouds,-14.2667,50.1667,Melrose
566,Ormara,PK,83.17,clear sky,25.2088,64.6357,Crystal Beach and Camping Resort Ormara
567,Boa Vista,BR,80.58,thunderstorm,2.8197,-60.6733,Aipana Plaza Hotel
571,Massaguet,TD,77.04,overcast clouds,12.4755,15.4365,Alwatane
573,Russell,US,74.8,clear sky,32.3502,-85.1999,Macs
580,Thinadhoo,MV,83.07,overcast clouds,0.5333,72.9333,
581,Lar,IN,72.86,clear sky,26.2039,83.9717,Ovaiskarni ward Lar
582,Envira,BR,76.55,light rain,-7.3,-70.2167,
584,Omboue,GA,76.24,overcast clouds,-1.5746,9.2618,Hotel Olako
585,Lodwar,KE,84.02,few clouds,3.1191,35.5973,Solmar Gracious Hotel
587,Taoudenni,ML,89.38,broken clouds,22.6783,-3.9836,
589,Faya,SA,63.12,scattered clouds,18.3851,42.4509,املاك خالد الشعشوع
590,Garissa,KE,75.78,few clouds,-0.4536,39.6401,Sharif Plaza Hotel
591,Midland,US,75.87,clear sky,31.9974,-102.0779,DoubleTree by Hilton Hotel Midland Plaza
593,Norman,US,81.66,broken clouds,35.2226,-97.4395,Montford Inn
594,Daru,PG,80.46,overcast clouds,-9.0763,143.2092,Daru Lodge
595,Curuguaty,PY,67.96,overcast clouds,-24.4694,-55.6945,La Esquina del Tereré
596,Kuching,MY,79.02,few clouds,1.55,110.3333,The Ranee Boutique Suites
597,Warri,NG,75.72,overcast clouds,5.5167,5.75,BON Hotel Delta
600,Kouango,CF,71.26,overcast clouds,4.9934,19.9619,
601,Panaba,MX,80.62,overcast clouds,21.2833,-88.2667,Posada rosario
602,Khartoum,SD,84.02,overcast clouds,15.5518,32.5324,Hotel China
605,Bucerias,MX,89.58,broken clouds,20.75,-105.3333,Royal Decameron Complex - Puerto Vallarta
606,Plettenberg Bay,ZA,61.5,broken clouds,-34.0527,23.3716,Thanda Vista B&B
607,Menongue,AO,66.79,few clouds,-14.6585,17.691,Ritz Lauca
612,Meulaboh,ID,76.17,overcast clouds,4.1363,96.1285,Kost Pria
613,Samandag,TR,63.12,clear sky,36.0842,35.9771,Truva Life Hotel
615,Abidjan,CI,80.56,light rain,5.3094,-4.0197,ibis Abidjan Plateau
616,Ahipara,NZ,61.18,overcast clouds,-35.1667,173.1667,Ahipara Holiday Park
619,Gold Coast,AU,81.25,broken clouds,-28.0,153.4333,Mantra Towers of Chevron Surfers Paradise
620,Abakaliki,NG,74.12,overcast clouds,6.3163,8.1169,Grande Vitesse Apartments and Hotels
622,Pachino,IT,60.6,clear sky,36.7186,15.0907,Pietra Bianca B&B
624,Port Lavaca,US,84.97,overcast clouds,28.615,-96.6261,Holiday Inn Express & Suites Port Lavaca
625,Gaozhou,CN,77.72,overcast clouds,21.9392,110.8461,望江楼旅业
626,Mizan Teferi,ET,61.86,overcast clouds,6.9833,35.5833,Hotel Salayish | ሆቴል ሳላይሽ
627,Quzhou,CN,70.77,overcast clouds,28.9594,118.8686,Quzhou Jiujiu Business Hotel
629,Chissamba,AO,70.14,scattered clouds,-12.1667,17.3333,
631,Ninghai,CN,75.72,broken clouds,29.2892,121.4247,Kaiyuan New Century Hotel
632,Kihei,US,82.42,scattered clouds,20.785,-156.4656,Maui Sunset
633,Broome,US,64.2,broken clouds,42.2506,-75.833,Chenango Valley State Park
634,Fallon,US,68.41,few clouds,39.4735,-118.7774,Best Western Fallon Inn & Suites
635,Samarai,PG,78.73,overcast clouds,-10.6167,150.6667,Nuli Sapi
637,Mpongwe,ZM,76.03,clear sky,-13.5091,28.155,GCMF Office & Lodge
638,Labuan,MY,82.76,few clouds,5.2767,115.2417,Tiara Labuan Hotel
639,Lagunas,PE,79.93,scattered clouds,-5.2269,-75.6753,Hospedaje Eco
640,Da Lat,VN,64.36,overcast clouds,11.9465,108.4419,Khách Sạn Dragon King I
641,Kibungo,RW,67.12,overcast clouds,-2.1597,30.5427,Kibungo - Centre St. Joseph Guest House
642,Pimentel,PE,65.19,broken clouds,-6.8367,-79.9342,Casona Del Muelle
643,Nueve De Julio,AR,60.71,overcast clouds,-35.4444,-60.8831,Grand Hotel Libertad - GHL
644,Cabedelo,BR,77.67,few clouds,-6.9811,-34.8339,Hotel Pigalle
645,Arlit,NE,83.79,scattered clouds,18.7369,7.3853,Case de Passage De la Prefecture
646,Kinablangan,PH,82.89,overcast clouds,7.6947,126.5503,Danny Moreno Property
647,Westport,US,64.89,overcast clouds,41.1415,-73.3579,The Westport Inn
648,Mucurapo,TT,82.45,overcast clouds,10.6667,-61.5333,Courtyard by Marriott Port of Spain
649,Olinda,BR,80.33,scattered clouds,-8.0089,-34.8553,Hotel Albergue de Olinda
651,Hirara,JP,80.87,broken clouds,24.8,125.2833,Hotel Atoll Emerald Miyakojima
653,Kano,NG,79.34,overcast clouds,12.0001,8.5167,Havana Guest Inn
654,Mpraeso,GH,68.43,overcast clouds,6.5932,-0.7346,JAYS Lodge
655,Nador,MA,68.25,clear sky,35.174,-2.9287,Hôtel La Giralda
656,Lambarene,GA,74.35,overcast clouds,-0.7001,10.2406,Le Refuge
657,Huzhou,CN,66.97,overcast clouds,30.8703,120.0933,Huzhou Plaza Hotel
658,Mega,ET,62.42,scattered clouds,4.05,38.3,Amanuel Guest House
659,Abu Samrah,SY,69.49,scattered clouds,35.3029,37.1841,
660,Hosakote,IN,72.86,overcast clouds,14.2769,77.1699,AVN lodge
662,Mecca,SA,83.89,clear sky,21.4267,39.8261,"Makkah Clock Royal Tower, A Fairmont Hotel"
664,Nacala,MZ,71.92,clear sky,-14.5428,40.6728,Nacala Plaza Business Design Hotel
665,Ippy,CF,69.98,overcast clouds,6.2679,21.2247,
666,Lubao,PH,86.14,light rain,14.9167,120.55,Hacienda Gracia
667,Humaita,BR,81.82,scattered clouds,-7.5061,-63.0208,Corrêa Hotel
668,Zambezi,ZM,73.96,scattered clouds,-13.5432,23.1047,Royal Kutachika Lodge
669,Ponta Delgada,PT,72.32,broken clouds,37.7333,-25.6667,Vila Nova Hotel
670,Balabag,PH,82.31,overcast clouds,11.97,121.9192,Astoria Boracay
671,Katihar,IN,74.95,clear sky,25.5333,87.5833,Hotel Deluxe
672,Tual,ID,82.81,overcast clouds,-5.6667,132.75,Grand Vilia Hotel
674,Havelock,US,74.05,broken clouds,34.8791,-76.9013,Sherwood Motel
675,Pierre,US,63.28,clear sky,44.3683,-100.351,Ramkota Hotel
676,Batticaloa,LK,79.95,moderate rain,7.7102,81.6924,Grand Star Guest House
677,Tadine,NC,75.63,scattered clouds,-21.55,167.8833,
678,Shangrao,CN,73.26,overcast clouds,28.4532,117.9686,Boyue boutique Hotel
679,Umarkhed,IN,70.92,clear sky,19.6,77.7,MANOJ SUROSHE
680,Tevaitoa,PF,79.39,light rain,-16.7833,-151.5,Hôtel Raiatea Lodge
681,Kasongo-Lunda,CD,71.35,overcast clouds,-6.4667,16.8167,
